[
  {
    "name": "Château Haut-Brion",
    "growth": "Premier Cru",
    "growth_num": 1,
    "aoc": "Pessac-Léognan",
    "bank": "Left",
    "commune": "Pessac",
    "lat": 44.814545,
    "lon": -0.612432,
    "elevation_m": 26.0,
    "dist_gironde_km": 24.04,
    "dist_atlantic_km": 87.78,
    "soil_clay_pct": null,
    "soil_sand_pct": null,
    "soil_silt_pct": null
  },
  {
    "name": "Château Lafite Rothschild",
    "growth": "Premier Cru",
    "growth_num": 1,
    "aoc": "Pauillac",
    "bank": "Left",
    "commune": "Pauillac",
    "lat": 45.224819,
    "lon": -0.773214,
    "elevation_m": 14.0,
    "dist_gironde_km": 5.04,
    "dist_atlantic_km": 42.64,
    "soil_clay_pct": 34.2,
    "soil_sand_pct": 33.4,
    "soil_silt_pct": 32.4
  },
  {
    "name": "Château Latour",
    "growth": "Premier Cru",
    "growth_num": 1,
    "aoc": "Pauillac",
    "bank": "Left",
    "commune": "Pauillac",
    "lat": 45.175856,
    "lon": -0.744557,
    "elevation_m": 13.0,
    "dist_gironde_km": 4.96,
    "dist_atlantic_km": 48.27,
    "soil_clay_pct": null,
    "soil_sand_pct": null,
    "soil_silt_pct": null
  },
  {
    "name": "Château Margaux",
    "growth": "Premier Cru",
    "growth_num": 1,
    "aoc": "Margaux",
    "bank": "Left",
    "commune": "Margaux",
    "lat": 45.044436,
    "lon": -0.668808,
    "elevation_m": 7.0,
    "dist_gironde_km": 5.51,
    "dist_atlantic_km": 63.55,
    "soil_clay_pct": 31.8,
    "soil_sand_pct": 38.9,
    "soil_silt_pct": 29.3
  },
  {
    "name": "Château Mouton Rothschild",
    "growth": "Premier Cru",
    "growth_num": 1,
    "aoc": "Pauillac",
    "bank": "Left",
    "commune": "Pauillac",
    "lat": 45.215278,
    "lon": -0.768457,
    "elevation_m": 24.0,
    "dist_gironde_km": 5.09,
    "dist_atlantic_km": 43.69,
    "soil_clay_pct": null,
    "soil_sand_pct": null,
    "soil_silt_pct": null
  },
  {
    "name": "Château Brane-Cantenac",
    "growth": "Deuxième Cru",
    "growth_num": 2,
    "aoc": "Margaux",
    "bank": "Left",
    "commune": "Cantenac",
    "lat": 45.023934,
    "lon": -0.673679,
    "elevation_m": 15.0,
    "dist_gironde_km": 7.53,
    "dist_atlantic_km": 65.23,
    "soil_clay_pct": 21.8,
    "soil_sand_pct": 53.4,
    "soil_silt_pct": 24.8
  },
  {
    "name": "Château Cos d'Estournel",
    "growth": "Deuxième Cru",
    "growth_num": 2,
    "aoc": "Saint-Estèphe",
    "bank": "Left",
    "commune": "Saint-Estèphe",
    "lat": 45.230775,
    "lon": -0.775764,
    "elevation_m": 21.0,
    "dist_gironde_km": 4.99,
    "dist_atlantic_km": 42.01,
    "soil_clay_pct": 23.8,
    "soil_sand_pct": 47.9,
    "soil_silt_pct": 28.3
  },
  {
    "name": "Château Ducru-Beaucaillou",
    "growth": "Deuxième Cru",
    "growth_num": 2,
    "aoc": "Saint-Julien",
    "bank": "Left",
    "commune": "Saint-Julien-Beychevelle",
    "lat": 45.149083,
    "lon": -0.731023,
    "elevation_m": 4.0,
    "dist_gironde_km": 5.08,
    "dist_atlantic_km": 51.26,
    "soil_clay_pct": 36.1,
    "soil_sand_pct": 30.3,
    "soil_silt_pct": 33.6
  },
  {
    "name": "Château Durfort-Vivens",
    "growth": "Deuxième Cru",
    "growth_num": 2,
    "aoc": "Margaux",
    "bank": "Left",
    "commune": "Margaux",
    "lat": 45.040046,
    "lon": -0.674505,
    "elevation_m": 15.0,
    "dist_gironde_km": 6.18,
    "dist_atlantic_km": 63.7,
    "soil_clay_pct": null,
    "soil_sand_pct": null,
    "soil_silt_pct": null
  },
  {
    "name": "Château Gruaud-Larose",
    "growth": "Deuxième Cru",
    "growth_num": 2,
    "aoc": "Saint-Julien",
    "bank": "Left",
    "commune": "Saint-Julien-Beychevelle",
    "lat": 45.144531,
    "lon": -0.750964,
    "elevation_m": 21.0,
    "dist_gironde_km": 6.79,
    "dist_atlantic_km": 50.73,
    "soil_clay_pct": 30.6,
    "soil_sand_pct": 41.9,
    "soil_silt_pct": 27.5
  },
  {
    "name": "Château Lascombes",
    "growth": "Deuxième Cru",
    "growth_num": 2,
    "aoc": "Margaux",
    "bank": "Left",
    "commune": "Margaux",
    "lat": 45.041412,
    "lon": -0.683781,
    "elevation_m": 22.0,
    "dist_gironde_km": 6.67,
    "dist_atlantic_km": 63.17,
    "soil_clay_pct": null,
    "soil_sand_pct": null,
    "soil_silt_pct": null
  },
  {
    "name": "Château Léoville-Barton",
    "growth": "Deuxième Cru",
    "growth_num": 2,
    "aoc": "Saint-Julien",
    "bank": "Left",
    "commune": "Saint-Julien-Beychevelle",
    "lat": 45.1565,
    "lon": -0.745,
    "elevation_m": 13.0,
    "dist_gironde_km": 5.82,
    "dist_atlantic_km": 49.94,
    "soil_clay_pct": 29.0,
    "soil_sand_pct": 41.6,
    "soil_silt_pct": 29.4
  },
  {
    "name": "Château Léoville-Las Cases",
    "growth": "Deuxième Cru",
    "growth_num": 2,
    "aoc": "Saint-Julien",
    "bank": "Left",
    "commune": "Saint-Julien-Beychevelle",
    "lat": 45.1717,
    "lon": -0.7488,
    "elevation_m": 8.0,
    "dist_gironde_km": 5.46,
    "dist_atlantic_km": 48.42,
    "soil_clay_pct": 28.6,
    "soil_sand_pct": 44.1,
    "soil_silt_pct": 27.4
  },
  {
    "name": "Château Léoville-Poyferré",
    "growth": "Deuxième Cru",
    "growth_num": 2,
    "aoc": "Saint-Julien",
    "bank": "Left",
    "commune": "Saint-Julien-Beychevelle",
    "lat": 45.166,
    "lon": -0.748,
    "elevation_m": 15.0,
    "dist_gironde_km": 5.65,
    "dist_atlantic_km": 48.96,
    "soil_clay_pct": 27.2,
    "soil_sand_pct": 43.5,
    "soil_silt_pct": 29.3
  },
  {
    "name": "Château Montrose",
    "growth": "Deuxième Cru",
    "growth_num": 2,
    "aoc": "Saint-Estèphe",
    "bank": "Left",
    "commune": "Saint-Estèphe",
    "lat": 45.246888,
    "lon": -0.762263,
    "elevation_m": 17.0,
    "dist_gironde_km": 3.27,
    "dist_atlantic_km": 41.42,
    "soil_clay_pct": 29.7,
    "soil_sand_pct": 40.1,
    "soil_silt_pct": 30.2
  },
  {
    "name": "Château Pichon Longueville Baron",
    "growth": "Deuxième Cru",
    "growth_num": 2,
    "aoc": "Pauillac",
    "bank": "Left",
    "commune": "Pauillac",
    "lat": 45.1985,
    "lon": -0.7492,
    "elevation_m": 14.0,
    "dist_gironde_km": 4.34,
    "dist_atlantic_km": 46.09,
    "soil_clay_pct": null,
    "soil_sand_pct": null,
    "soil_silt_pct": null
  },
  {
    "name": "Château Pichon Longueville Comtesse de Lalande",
    "growth": "Deuxième Cru",
    "growth_num": 2,
    "aoc": "Pauillac",
    "bank": "Left",
    "commune": "Pauillac",
    "lat": 45.175785,
    "lon": -0.749545,
    "elevation_m": 20.0,
    "dist_gironde_km": 5.34,
    "dist_atlantic_km": 48.03,
    "soil_clay_pct": null,
    "soil_sand_pct": null,
    "soil_silt_pct": null
  },
  {
    "name": "Château Rauzan-Gassies",
    "growth": "Deuxième Cru",
    "growth_num": 2,
    "aoc": "Margaux",
    "bank": "Left",
    "commune": "Margaux",
    "lat": 45.036818,
    "lon": -0.675104,
    "elevation_m": 15.0,
    "dist_gironde_km": 6.47,
    "dist_atlantic_km": 63.97,
    "soil_clay_pct": 23.7,
    "soil_sand_pct": 51.0,
    "soil_silt_pct": 25.3
  },
  {
    "name": "Château Rauzan-Ségla",
    "growth": "Deuxième Cru",
    "growth_num": 2,
    "aoc": "Margaux",
    "bank": "Left",
    "commune": "Margaux",
    "lat": 45.035948,
    "lon": -0.675506,
    "elevation_m": 16.0,
    "dist_gironde_km": 6.56,
    "dist_atlantic_km": 64.03,
    "soil_clay_pct": 23.7,
    "soil_sand_pct": 51.0,
    "soil_silt_pct": 25.3
  },
  {
    "name": "Château Boyd-Cantenac",
    "growth": "Troisième Cru",
    "growth_num": 3,
    "aoc": "Margaux",
    "bank": "Left",
    "commune": "Cantenac",
    "lat": 45.022756,
    "lon": -0.655811,
    "elevation_m": 7.0,
    "dist_gironde_km": 6.66,
    "dist_atlantic_km": 66.12,
    "soil_clay_pct": 33.3,
    "soil_sand_pct": 35.9,
    "soil_silt_pct": 30.8
  },
  {
    "name": "Château Calon-Ségur",
    "growth": "Troisième Cru",
    "growth_num": 3,
    "aoc": "Saint-Estèphe",
    "bank": "Left",
    "commune": "Saint-Estèphe",
    "lat": 45.26671,
    "lon": -0.778577,
    "elevation_m": 3.0,
    "dist_gironde_km": 3.68,
    "dist_atlantic_km": 38.95,
    "soil_clay_pct": 36.2,
    "soil_sand_pct": 27.5,
    "soil_silt_pct": 36.3
  },
  {
    "name": "Château Cantenac-Brown",
    "growth": "Troisième Cru",
    "growth_num": 3,
    "aoc": "Margaux",
    "bank": "Left",
    "commune": "Cantenac",
    "lat": 45.027178,
    "lon": -0.67881,
    "elevation_m": 18.0,
    "dist_gironde_km": 7.48,
    "dist_atlantic_km": 64.7,
    "soil_clay_pct": 20.9,
    "soil_sand_pct": 55.1,
    "soil_silt_pct": 24.0
  },
  {
    "name": "Château Desmirail",
    "growth": "Troisième Cru",
    "growth_num": 3,
    "aoc": "Margaux",
    "bank": "Left",
    "commune": "Margaux",
    "lat": 45.028202,
    "lon": -0.653791,
    "elevation_m": 8.0,
    "dist_gironde_km": 6.12,
    "dist_atlantic_km": 65.71,
    "soil_clay_pct": null,
    "soil_sand_pct": null,
    "soil_silt_pct": null
  },
  {
    "name": "Château Ferrière",
    "growth": "Troisième Cru",
    "growth_num": 3,
    "aoc": "Margaux",
    "bank": "Left",
    "commune": "Margaux",
    "lat": 45.043566,
    "lon": -0.676423,
    "elevation_m": 12.0,
    "dist_gironde_km": 6.01,
    "dist_atlantic_km": 63.29,
    "soil_clay_pct": null,
    "soil_sand_pct": null,
    "soil_silt_pct": null
  },
  {
    "name": "Château Giscours",
    "growth": "Troisième Cru",
    "growth_num": 3,
    "aoc": "Margaux",
    "bank": "Left",
    "commune": "Labarde",
    "lat": 45.008894,
    "lon": -0.646434,
    "elevation_m": 9.0,
    "dist_gironde_km": 7.14,
    "dist_atlantic_km": 67.81,
    "soil_clay_pct": 27.2,
    "soil_sand_pct": 49.0,
    "soil_silt_pct": 23.8
  },
  {
    "name": "Château Kirwan",
    "growth": "Troisième Cru",
    "growth_num": 3,
    "aoc": "Margaux",
    "bank": "Left",
    "commune": "Cantenac",
    "lat": 45.027117,
    "lon": -0.658418,
    "elevation_m": 12.0,
    "dist_gironde_km": 6.49,
    "dist_atlantic_km": 65.6,
    "soil_clay_pct": 34.3,
    "soil_sand_pct": 38.1,
    "soil_silt_pct": 27.6
  },
  {
    "name": "Château La Lagune",
    "growth": "Troisième Cru",
    "growth_num": 3,
    "aoc": "Haut-Médoc",
    "bank": "Left",
    "commune": "Ludon-Médoc",
    "lat": 44.978921,
    "lon": -0.617486,
    "elevation_m": 12.0,
    "dist_gironde_km": 7.64,
    "dist_atlantic_km": 71.84,
    "soil_clay_pct": 22.9,
    "soil_sand_pct": 48.7,
    "soil_silt_pct": 28.4
  },
  {
    "name": "Château Lagrange",
    "growth": "Troisième Cru",
    "growth_num": 3,
    "aoc": "Saint-Julien",
    "bank": "Left",
    "commune": "Saint-Julien-Beychevelle",
    "lat": 45.149425,
    "lon": -0.773258,
    "elevation_m": 17.0,
    "dist_gironde_km": 8.28,
    "dist_atlantic_km": 49.28,
    "soil_clay_pct": 24.3,
    "soil_sand_pct": 49.4,
    "soil_silt_pct": 26.3
  },
  {
    "name": "Château Langoa-Barton",
    "growth": "Troisième Cru",
    "growth_num": 3,
    "aoc": "Saint-Julien",
    "bank": "Left",
    "commune": "Saint-Julien-Beychevelle",
    "lat": 45.157334,
    "lon": -0.740015,
    "elevation_m": 15.0,
    "dist_gironde_km": 5.41,
    "dist_atlantic_km": 50.11,
    "soil_clay_pct": 29.4,
    "soil_sand_pct": 43.8,
    "soil_silt_pct": 26.8
  },
  {
    "name": "Château Malescot St. Exupéry",
    "growth": "Troisième Cru",
    "growth_num": 3,
    "aoc": "Margaux",
    "bank": "Left",
    "commune": "Margaux",
    "lat": 45.040639,
    "lon": -0.675711,
    "elevation_m": 15.0,
    "dist_gironde_km": 6.2,
    "dist_atlantic_km": 63.59,
    "soil_clay_pct": null,
    "soil_sand_pct": null,
    "soil_silt_pct": null
  },
  {
    "name": "Château Marquis d'Alesme Becker",
    "growth": "Troisième Cru",
    "growth_num": 3,
    "aoc": "Margaux",
    "bank": "Left",
    "commune": "Margaux",
    "lat": 45.04,
    "lon": -0.6722,
    "elevation_m": 16.0,
    "dist_gironde_km": 6.06,
    "dist_atlantic_km": 63.8,
    "soil_clay_pct": 24.7,
    "soil_sand_pct": 51.2,
    "soil_silt_pct": 24.0
  },
  {
    "name": "Château Palmer",
    "growth": "Troisième Cru",
    "growth_num": 3,
    "aoc": "Margaux",
    "bank": "Left",
    "commune": "Cantenac",
    "lat": 45.036693,
    "lon": -0.669282,
    "elevation_m": 19.0,
    "dist_gironde_km": 6.18,
    "dist_atlantic_km": 64.24,
    "soil_clay_pct": 23.8,
    "soil_sand_pct": 52.8,
    "soil_silt_pct": 23.4
  },
  {
    "name": "Château d'Issan",
    "growth": "Troisième Cru",
    "growth_num": 3,
    "aoc": "Margaux",
    "bank": "Left",
    "commune": "Cantenac",
    "lat": 45.037849,
    "lon": -0.658199,
    "elevation_m": 4.0,
    "dist_gironde_km": 5.57,
    "dist_atlantic_km": 64.63,
    "soil_clay_pct": 36.3,
    "soil_sand_pct": 33.7,
    "soil_silt_pct": 30.0
  },
  {
    "name": "Château Beychevelle",
    "growth": "Quatrième Cru",
    "growth_num": 4,
    "aoc": "Saint-Julien",
    "bank": "Left",
    "commune": "Saint-Julien-Beychevelle",
    "lat": 45.144955,
    "lon": -0.734961,
    "elevation_m": 13.0,
    "dist_gironde_km": 5.55,
    "dist_atlantic_km": 51.44,
    "soil_clay_pct": 32.0,
    "soil_sand_pct": 34.9,
    "soil_silt_pct": 33.1
  },
  {
    "name": "Château Branaire-Ducru",
    "growth": "Quatrième Cru",
    "growth_num": 4,
    "aoc": "Saint-Julien",
    "bank": "Left",
    "commune": "Saint-Julien-Beychevelle",
    "lat": 45.144407,
    "lon": -0.739051,
    "elevation_m": 16.0,
    "dist_gironde_km": 5.89,
    "dist_atlantic_km": 51.3,
    "soil_clay_pct": 27.9,
    "soil_sand_pct": 40.9,
    "soil_silt_pct": 31.2
  },
  {
    "name": "Château Duhart-Milon",
    "growth": "Quatrième Cru",
    "growth_num": 4,
    "aoc": "Pauillac",
    "bank": "Left",
    "commune": "Pauillac",
    "lat": 45.21584,
    "lon": -0.787531,
    "elevation_m": 21.0,
    "dist_gironde_km": 6.52,
    "dist_atlantic_km": 42.69,
    "soil_clay_pct": 22.9,
    "soil_sand_pct": 45.4,
    "soil_silt_pct": 31.7
  },
  {
    "name": "Château La Tour Carnet",
    "growth": "Quatrième Cru",
    "growth_num": 4,
    "aoc": "Haut-Médoc",
    "bank": "Left",
    "commune": "Saint-Laurent-Médoc",
    "lat": 45.14701,
    "lon": -0.793833,
    "elevation_m": 9.0,
    "dist_gironde_km": 9.96,
    "dist_atlantic_km": 48.6,
    "soil_clay_pct": 26.5,
    "soil_sand_pct": 41.1,
    "soil_silt_pct": 32.4
  },
  {
    "name": "Château Lafon-Rochet",
    "growth": "Quatrième Cru",
    "growth_num": 4,
    "aoc": "Saint-Estèphe",
    "bank": "Left",
    "commune": "Saint-Estèphe",
    "lat": 45.229405,
    "lon": -0.787792,
    "elevation_m": 24.0,
    "dist_gironde_km": 5.96,
    "dist_atlantic_km": 41.51,
    "soil_clay_pct": 24.3,
    "soil_sand_pct": 46.6,
    "soil_silt_pct": 29.1
  },
  {
    "name": "Château Marquis de Terme",
    "growth": "Quatrième Cru",
    "growth_num": 4,
    "aoc": "Margaux",
    "bank": "Left",
    "commune": "Margaux",
    "lat": 45.038122,
    "lon": -0.677908,
    "elevation_m": 18.0,
    "dist_gironde_km": 6.52,
    "dist_atlantic_km": 63.73,
    "soil_clay_pct": 22.8,
    "soil_sand_pct": 53.5,
    "soil_silt_pct": 23.7
  },
  {
    "name": "Château Pouget",
    "growth": "Quatrième Cru",
    "growth_num": 4,
    "aoc": "Margaux",
    "bank": "Left",
    "commune": "Cantenac",
    "lat": 45.023116,
    "lon": -0.656928,
    "elevation_m": 7.0,
    "dist_gironde_km": 6.71,
    "dist_atlantic_km": 66.03,
    "soil_clay_pct": 33.3,
    "soil_sand_pct": 35.9,
    "soil_silt_pct": 30.8
  },
  {
    "name": "Château Prieuré-Lichine",
    "growth": "Quatrième Cru",
    "growth_num": 4,
    "aoc": "Margaux",
    "bank": "Left",
    "commune": "Cantenac",
    "lat": 45.028968,
    "lon": -0.656529,
    "elevation_m": 11.0,
    "dist_gironde_km": 6.23,
    "dist_atlantic_km": 65.51,
    "soil_clay_pct": 33.5,
    "soil_sand_pct": 38.8,
    "soil_silt_pct": 27.7
  },
  {
    "name": "Château Saint-Pierre",
    "growth": "Quatrième Cru",
    "growth_num": 4,
    "aoc": "Saint-Julien",
    "bank": "Left",
    "commune": "Saint-Julien-Beychevelle",
    "lat": 45.147189,
    "lon": -0.742709,
    "elevation_m": 16.0,
    "dist_gironde_km": 6.05,
    "dist_atlantic_km": 50.88,
    "soil_clay_pct": 27.1,
    "soil_sand_pct": 41.9,
    "soil_silt_pct": 31.0
  },
  {
    "name": "Château Talbot",
    "growth": "Quatrième Cru",
    "growth_num": 4,
    "aoc": "Saint-Julien",
    "bank": "Left",
    "commune": "Saint-Julien-Beychevelle",
    "lat": 45.159701,
    "lon": -0.756945,
    "elevation_m": 23.0,
    "dist_gironde_km": 6.6,
    "dist_atlantic_km": 49.09,
    "soil_clay_pct": 23.4,
    "soil_sand_pct": 52.1,
    "soil_silt_pct": 24.5
  },
  {
    "name": "Château Batailley",
    "growth": "Cinquième Cru",
    "growth_num": 5,
    "aoc": "Pauillac",
    "bank": "Left",
    "commune": "Pauillac",
    "lat": 45.176798,
    "lon": -0.772904,
    "elevation_m": 30.0,
    "dist_gironde_km": 7.08,
    "dist_atlantic_km": 46.82,
    "soil_clay_pct": 19.0,
    "soil_sand_pct": 53.3,
    "soil_silt_pct": 27.8
  },
  {
    "name": "Château Belgrave",
    "growth": "Cinquième Cru",
    "growth_num": 5,
    "aoc": "Haut-Médoc",
    "bank": "Left",
    "commune": "Saint-Laurent-Médoc",
    "lat": 45.151191,
    "lon": -0.779672,
    "elevation_m": 22.0,
    "dist_gironde_km": 8.7,
    "dist_atlantic_km": 48.83,
    "soil_clay_pct": 21.3,
    "soil_sand_pct": 50.6,
    "soil_silt_pct": 28.1
  },
  {
    "name": "Château Cantemerle",
    "growth": "Cinquième Cru",
    "growth_num": 5,
    "aoc": "Haut-Médoc",
    "bank": "Left",
    "commune": "Macau",
    "lat": 44.994238,
    "lon": -0.625929,
    "elevation_m": 11.0,
    "dist_gironde_km": 6.99,
    "dist_atlantic_km": 70.06,
    "soil_clay_pct": 26.8,
    "soil_sand_pct": 50.8,
    "soil_silt_pct": 22.4
  },
  {
    "name": "Château Clerc-Milon",
    "growth": "Cinquième Cru",
    "growth_num": 5,
    "aoc": "Pauillac",
    "bank": "Left",
    "commune": "Pauillac",
    "lat": 45.221668,
    "lon": -0.765365,
    "elevation_m": 16.0,
    "dist_gironde_km": 4.58,
    "dist_atlantic_km": 43.31,
    "soil_clay_pct": null,
    "soil_sand_pct": null,
    "soil_silt_pct": null
  },
  {
    "name": "Château Cos Labory",
    "growth": "Cinquième Cru",
    "growth_num": 5,
    "aoc": "Saint-Estèphe",
    "bank": "Left",
    "commune": "Saint-Estèphe",
    "lat": 45.230943,
    "lon": -0.776837,
    "elevation_m": 22.0,
    "dist_gironde_km": 5.06,
    "dist_atlantic_km": 41.94,
    "soil_clay_pct": 23.8,
    "soil_sand_pct": 47.9,
    "soil_silt_pct": 28.3
  },
  {
    "name": "Château Croizet Bages",
    "growth": "Cinquième Cru",
    "growth_num": 5,
    "aoc": "Pauillac",
    "bank": "Left",
    "commune": "Pauillac",
    "lat": 45.190774,
    "lon": -0.756591,
    "elevation_m": 22.0,
    "dist_gironde_km": 5.24,
    "dist_atlantic_km": 46.38,
    "soil_clay_pct": 24.3,
    "soil_sand_pct": 45.2,
    "soil_silt_pct": 30.5
  },
  {
    "name": "Château Dauzac",
    "growth": "Cinquième Cru",
    "growth_num": 5,
    "aoc": "Margaux",
    "bank": "Left",
    "commune": "Labarde",
    "lat": 45.019373,
    "lon": -0.623337,
    "elevation_m": 4.0,
    "dist_gironde_km": 4.88,
    "dist_atlantic_km": 67.89,
    "soil_clay_pct": 32.0,
    "soil_sand_pct": 35.6,
    "soil_silt_pct": 32.4
  },
  {
    "name": "Château Grand-Puy-Ducasse",
    "growth": "Cinquième Cru",
    "growth_num": 5,
    "aoc": "Pauillac",
    "bank": "Left",
    "commune": "Pauillac",
    "lat": 45.199949,
    "lon": -0.746636,
    "elevation_m": 9.0,
    "dist_gironde_km": 4.08,
    "dist_atlantic_km": 46.1,
    "soil_clay_pct": null,
    "soil_sand_pct": null,
    "soil_silt_pct": null
  },
  {
    "name": "Château Grand-Puy-Lacoste",
    "growth": "Cinquième Cru",
    "growth_num": 5,
    "aoc": "Pauillac",
    "bank": "Left",
    "commune": "Pauillac",
    "lat": 45.190037,
    "lon": -0.7691,
    "elevation_m": 19.0,
    "dist_gironde_km": 6.22,
    "dist_atlantic_km": 45.83,
    "soil_clay_pct": 22.1,
    "soil_sand_pct": 49.2,
    "soil_silt_pct": 28.7
  },
  {
    "name": "Château Haut-Bages-Libéral",
    "growth": "Cinquième Cru",
    "growth_num": 5,
    "aoc": "Pauillac",
    "bank": "Left",
    "commune": "Pauillac",
    "lat": 45.182385,
    "lon": -0.749155,
    "elevation_m": 7.0,
    "dist_gironde_km": 5.03,
    "dist_atlantic_km": 47.47,
    "soil_clay_pct": 31.4,
    "soil_sand_pct": 37.1,
    "soil_silt_pct": 31.5
  },
  {
    "name": "Château Haut-Batailley",
    "growth": "Cinquième Cru",
    "growth_num": 5,
    "aoc": "Pauillac",
    "bank": "Left",
    "commune": "Pauillac",
    "lat": 45.173338,
    "lon": -0.770878,
    "elevation_m": 23.0,
    "dist_gironde_km": 7.07,
    "dist_atlantic_km": 47.22,
    "soil_clay_pct": 18.6,
    "soil_sand_pct": 53.8,
    "soil_silt_pct": 27.6
  },
  {
    "name": "Château Lynch-Bages",
    "growth": "Cinquième Cru",
    "growth_num": 5,
    "aoc": "Pauillac",
    "bank": "Left",
    "commune": "Pauillac",
    "lat": 45.191382,
    "lon": -0.754544,
    "elevation_m": 22.0,
    "dist_gironde_km": 5.05,
    "dist_atlantic_km": 46.43,
    "soil_clay_pct": null,
    "soil_sand_pct": null,
    "soil_silt_pct": null
  },
  {
    "name": "Château Lynch-Moussas",
    "growth": "Cinquième Cru",
    "growth_num": 5,
    "aoc": "Pauillac",
    "bank": "Left",
    "commune": "Pauillac",
    "lat": 45.183572,
    "lon": -0.792225,
    "elevation_m": 29.0,
    "dist_gironde_km": 8.26,
    "dist_atlantic_km": 45.31,
    "soil_clay_pct": 18.2,
    "soil_sand_pct": 56.1,
    "soil_silt_pct": 25.7
  },
  {
    "name": "Château Pontet-Canet",
    "growth": "Cinquième Cru",
    "growth_num": 5,
    "aoc": "Pauillac",
    "bank": "Left",
    "commune": "Pauillac",
    "lat": 45.208716,
    "lon": -0.770813,
    "elevation_m": 24.0,
    "dist_gironde_km": 5.55,
    "dist_atlantic_km": 44.13,
    "soil_clay_pct": null,
    "soil_sand_pct": null,
    "soil_silt_pct": null
  },
  {
    "name": "Château Pédesclaux",
    "growth": "Cinquième Cru",
    "growth_num": 5,
    "aoc": "Pauillac",
    "bank": "Left",
    "commune": "Pauillac",
    "lat": 45.21201,
    "lon": -0.756679,
    "elevation_m": 12.0,
    "dist_gironde_km": 4.33,
    "dist_atlantic_km": 44.57,
    "soil_clay_pct": null,
    "soil_sand_pct": null,
    "soil_silt_pct": null
  },
  {
    "name": "Château d'Armailhac",
    "growth": "Cinquième Cru",
    "growth_num": 5,
    "aoc": "Pauillac",
    "bank": "Left",
    "commune": "Pauillac",
    "lat": 45.211079,
    "lon": -0.769917,
    "elevation_m": 23.0,
    "dist_gironde_km": 5.38,
    "dist_atlantic_km": 43.97,
    "soil_clay_pct": 23.4,
    "soil_sand_pct": 47.3,
    "soil_silt_pct": 29.2
  },
  {
    "name": "Château de Camensac",
    "growth": "Cinquième Cru",
    "growth_num": 5,
    "aoc": "Haut-Médoc",
    "bank": "Left",
    "commune": "Saint-Laurent-Médoc",
    "lat": 45.122,
    "lon": -0.7707,
    "elevation_m": 9.0,
    "dist_gironde_km": 9.27,
    "dist_atlantic_km": 51.92,
    "soil_clay_pct": 23.2,
    "soil_sand_pct": 46.2,
    "soil_silt_pct": 30.6
  },
  {
    "name": "Château du Tertre",
    "growth": "Cinquième Cru",
    "growth_num": 5,
    "aoc": "Margaux",
    "bank": "Left",
    "commune": "Arsac",
    "lat": 45.005972,
    "lon": -0.680906,
    "elevation_m": 24.0,
    "dist_gironde_km": 9.52,
    "dist_atlantic_km": 66.6,
    "soil_clay_pct": 20.1,
    "soil_sand_pct": 49.0,
    "soil_silt_pct": 31.0
  }
]